IMG_ID,AUTHOR,LAT,LON,CITY,COUNTRY
104123223_7410c654ba_19_19355699@N00.jpg,19355699@N00,-16.663606,145.563537,Wangetti,Australia
1095548455_f636d22cbb_1277_8576809@N08.jpg,8576809@N08,31.893581,-85.141124,Eufaula,United States
1185597181_0158ab4213_1311_43616936@N00.jpg,43616936@N00,42.346571,-71.097228,Boston,United States
1199004207_0ce4e7a456_1285_16418049@N00.jpg,16418049@N00,37.090924,25.370521,Naxos,Greece
1257001714_3453f5fc4b_1405_11490799@N08.jpg,11490799@N08,55.485759,28.791046,Polatsk,Belarus
195179890_dfc29db44a_70_73935513@N00.jpg,73935513@N00,-25.499066,-54.621276,Ciudad del Este,Paraguay
212568980_fb3a00288d_71_21844368@N00.jpg,21844368@N00,12.974449,77.562789,Bangalore,India
222911552_50f2a18fde_66_56186870@N00.jpg,56186870@N00,60.773746,-148.812046,Whittier,United States
243683202_38f0178ce4_88_11807142@N00.jpg,11807142@N00,37.970117,23.720426,Athens,Greece
247766999_1de867ab93_96_94409333@N00.jpg,94409333@N00,36.403107,-93.736736,Eureka Springs,United States
251058170_ba714bfb50_87_67484939@N00.jpg,67484939@N00,34.841334,-92.486429,Little Rock,United States
254755691_b3bbae344e_95_79267922@N00.jpg,79267922@N00,39.94133,116.383666,Beijing,China
254762082_1a1b6d27d1_121_79267922@N00.jpg,79267922@N00,39.94133,116.383666,Beijing,China
257034510_2b7d64e610_118_26519935@N00.jpg,26519935@N00,13.74989,100.494861,Bangkok,Thailand
257176697_a302df7bec_86_41336221@N00.jpg,41336221@N00,40.366689,49.835443,Baku ,Azerbaijan
263896481_2f807d19ee_80_74806935@N00.jpg,74806935@N00,37.318012,-121.950309,San Jose,United States
264192767_4809b75a21_117_35468147630@N01.jpg,35468147630@N01,42.36246,-71.084353,Cambridge,United States
314328828_2b52ae145e_120_55852171@N00.jpg,55852171@N00,39.996996,116.267988,Beijing,China
315923188_366ee7e6cd_101_14491548@N00.jpg,14491548@N00,51.054991,3.732089,Ghent,Belgium
317019036_3b57b5b2e9_104_56249023@N00.jpg,56249023@N00,-47.031934,-67.259674,Fitz Roy ,Argentina
317024157_467511cd94_107_56249023@N00.jpg,56249023@N00,-50.358604,-72.285575,El Calafate,Argentina
317369069_16c7477d63_134_78221228@N00.jpg,78221228@N00,-50.462312,-73.005523,El Calafate,Argentina
336999316_7fda2b00b1_142_65367662@N00.jpg,65367662@N00,39.44017,-120.23025,Truckee,United States
338553788_a32e785773_163_21535758@N00.jpg,21535758@N00,34.987253,68.466796,Kabul,Afghanistan
338603422_520f0ce2ff_138_21535758@N00.jpg,21535758@N00,36.884014,68.57666,Yanghareq,Afghanistan
339483173_e48ee06639_139_63163416@N00.jpg,63163416@N00,31.213021,29.946069,Alexandria,Egypt
340942713_d485388d6d_152_21341800@N00.jpg,21341800@N00,36.765291,68.812866,Kunduz,Afghanistan
348532716_5a2b306c86_136_98767940@N00.jpg,98767940@N00,17.129307,-89.065818,Cristo Rey,Belize
363322243_42e6b4babe_100_26234358@N00.jpg,26234358@N00,52.525047,13.366949,Berlin,Germany
379263811_e4d22a1ba5_136_59615371@N00.jpg,59615371@N00,34.051166,-84.285993,Alpharetta,United States
391838246_31758bc752_139_94949650@N00.jpg,94949650@N00,49.341342,-123.01546,Vancouver,Canada
392982444_442d787db5_143_65412829@N00.jpg,65412829@N00,39.935276,32.852725,Ankara,Turkey
421350511_ee899b609d_129_85417391@N00.jpg,85417391@N00,32.242796,-111.167714,Tucson,United States
425432303_c817c468e3_166_14882112@N00.jpg,14882112@N00,41.371961,2.166323,Barcelona,Spain
427188519_bcf177e48b_146_84752760@N00.jpg,84752760@N00,41.401149,2.163276,Barcelona,Spain
429777514_e0ba93984e_169_89418754@N00.jpg,89418754@N00,41.403491,2.174423,Barcelona,Spain
429881745_35a951f032_187_37718182@N00.jpg,37718182@N00,41.387627,2.188044,Barcelona,Spain
432236572_f2da926f89_166_75452460@N00.jpg,75452460@N00,47.298266,13.686389,Schladming,Austria
436360592_ef20eb1e98_178_99746029@N00.jpg,99746029@N00,39.937908,116.398086,Beijing,China
437613430_d1466ffcdb_178_71613077@N00.jpg,71613077@N00,39.988497,116.184368,Beijing,China
453214262_2252fbefff_212_55126705@N00.jpg,55126705@N00,35.521425,-111.372699,Black Falls Crossing,United States
453384102_723b8a8182_207_55126705@N00.jpg,55126705@N00,34.611453,-111.841936,Camp Verde,United States
466882217_a9c6760cc4_220_64825499@N00.jpg,64825499@N00,12.607003,-70.055952,Noord,Aruba
482314949_dbc149bb10_224_50435419@N00.jpg,50435419@N00,-34.609758,-58.411216,Buenos Aires,Argentina
502172768_3a7a22811b_213_69641014@N00.jpg,69641014@N00,42.34351,-71.033585,Boston,United States
504921450_6f20499550_194_24311489@N00.jpg,24311489@N00,33.747894,-84.371148,Atlanta,United States
508033358_5d1f3bc07a_221_8393530@N05.jpg,8393530@N05,25.073471,-77.327785,Nassau,Bahamas
510183020_3dec046e80_192_77392231@N00.jpg,77392231@N00,13.724085,100.392208,Bangkok,Thailand
522546192_0030ad0eb1_237_61819159@N00.jpg,61819159@N00,-14.666716,145.448513,Lizard Island,Australia
530405817_0673660c96_1209_7885919@N07.jpg,7885919@N07,-34.603691,-58.381637,Buenos Aires,Argentina
534657711_dc2aa849a8_1333_72154266@N00.jpg,72154266@N00,-22.995414,-43.238539,Rio de Janeiro,Brazil
580496518_4214d97599_1280_7369430@N02.jpg,7369430@N02,30.245165,-87.733662,Gulf Shores,United States
779600060_a5f8e28de5_1184_52057668@N00.jpg,52057668@N00,-34.940336,138.585577,Adelaide,Australia
780091415_c803d82672_1332_88971695@N00.jpg,88971695@N00,-25.354342,131.046295,Mutitjulu,Australia
864479182_d60c47e2ce_1045_25304693@N00.jpg,25304693@N00,50.997714,5.40199,Zonhoven,Belgium
872841181_2ef32acf29_1371_66281185@N00.jpg,66281185@N00,36.057694,-112.136614,Grand Canyon Village,United States
952602201_87da454e31_1323_19953481@N00.jpg,19953481@N00,46.702202,12.991333,Laas,Austria
970273104_48060e4acd_1207_10815666@N04.jpg,10815666@N04,-34.602578,-58.383686,Buenos Aires,Argentina
97344248_30a4521091_32_77325609@N00.jpg,77325609@N00,41.395354,2.169113,Barcelona,Spain
980263629_f3373fa294_1253_9729483@N02.jpg,9729483@N02,52.504914,13.36284,Berlin,Germany
Ankara_00003_601190107_9f05b2251e_1292_8504005@N07.jpg,9f05b2251e_1292_8504005@N07,39.936592,32.8553,Ankara,Turkey
Antigua_00003_483035669_21c8bdeb2d_185_61417564@N00.jpg,21c8bdeb2d_185_61417564@N00,16.998628,-61.755861,English Harbour,Antigua and Barbuda
Arizona_00044_527647931_821085049a_1048_7412395@N07.jpg,821085049a_1048_7412395@N07,36.065673,-112.11713,Grand Canyon Village,United States
Aruba_00001_99110142_a573655582_34_50517642@N00.jpg,a573655582_34_50517642@N00,12.532151,-70.051435,Oranjestad,Aruba
Athens_00016_516320955_2f7c0642b4_212_36764971@N00.jpg,2f7c0642b4_212_36764971@N00,37.971102,23.726767,Athens,Greece
Azerbaijan_00003_1293945458_c58bd8d7c4_1048_97522422@N00.jpg,c58bd8d7c4_1048_97522422@N00,40.094882,49.387664,Qobustan,Azerbaijan
Bahamas_00006_343059190_9c31e29446_134_39595541@N00.jpg,9c31e29446_134_39595541@N00,25.114046,-77.126255,Nassau,Bahamas
Bangkok_00011_215914338_705d7ea038_92_20194767@N00.jpg,705d7ea038_92_20194767@N00,9.376241,99.94091,Bangkok,Thailand
Bangkok_00012_219604934_4e3ca563fc_83_82927779@N00.jpg,4e3ca563fc_83_82927779@N00,13.740614,100.489861,Bangkok,Thailand
Barcelona_00014_144658910_7517982a97_46_49503208420@N01.jpg,7517982a97_46_49503208420@N01,41.385245,2.169284,Barcelona,Spain
Belgium_00017_276044730_dceb8cccbc_112_12814307@N00.jpg,dceb8cccbc_112_12814307@N00,50.657949,5.474624,Liege,Belgium
Bolivia_00014_1347017613_651a38b69d_1376_11786349@N08.jpg,651a38b69d_1376_11786349@N08,-20.457333,-66.913604,Uyuni,Bolivia
Bosnia_00004_1138531814_e3579a53d8_1067_11515930@N06.jpg,e3579a53d8_1067_11515930@N06,43.065376,17.71202,Visici,Bosnia and Herzegovina
Botswana_00001_108331635_4dccd99e9d_52_73091266@N00.jpg,4dccd99e9d_52_73091266@N00,-19.116137,23.827285,Khwai,Botswana
California_00119_356125022_0a5c48aa89_139_64855637@N00.jpg,0a5c48aa89_139_64855637@N00,36.618184,-121.901893,Moneterey,United States
California_00122_361328855_6ace238cbf_134_41894169878@N01.jpg,6ace238cbf_134_41894169878@N01,33.441321,-118.492891,Two Harbours,United States
California_00147_439592027_f8ffa59be8_188_66347119@N00.jpg,f8ffa59be8_188_66347119@N00,33.89441,-115.829662,Palm Springs,United States
California_00197_718693402_4ba930995d_1150_7980350@N08.jpg,4ba930995d_1150_7980350@N08,37.752614,-119.526979,Yosemite Valley,United States
Cambodia_00020_401343054_b6c0b85d50_133_33463080@N00.jpg,b6c0b85d50_133_33463080@N00,13.372585,103.856849,Krong Siem Reap,Cambodia
Canada_00106_513453328_03108e034b_227_7665941@N08.jpg,03108e034b_227_7665941@N08,49.291349,-123.127512,Vancouver,Canada
Canada_00113_568886932_37f47747b8_1250_48264126@N00.jpg,37f47747b8_1250_48264126@N00,52.202557,-117.239742,Jasper,Canada
Chicago_00046_286428804_4fd17dde48_106_51306116@N00.jpg,4fd17dde48_106_51306116@N00,41.885921,-87.622833,Chicago,United States
Chicago_00080_496345089_f5d47dea91_196_69212252@N00.jpg,f5d47dea91_196_69212252@N00,41.939545,-87.639586,Chicago,United States
China_00073_487137127_79fefd5305_196_8159033@N04.jpg,79fefd5305_196_8159033@N04,34.272254,108.896656,Xian,China
China_00092_1004463976_03bb680078_1105_91728102@N00.jpg,03bb680078_1105_91728102@N00,28.362854,121.068735,Yueqing,China
Colombia_00009_487789777_0003ed5872_212_16836474@N00.jpg,0003ed5872_212_16836474@N00,-4.219137,-69.938964,Leticia,Colombia
Colorado_00057_1199140107_b35790beec_1001_59341685@N00.jpg,b35790beec_1001_59341685@N00,39.450311,-106.470608,Minturn,United States
Connecticut_00004_364162616_48c230f9e2_116_15376845@N00.jpg,48c230f9e2_116_15376845@N00,41.387237,-72.984205,Woodbridge,United States
CostaRica_00017_500118634_993d0110b5_199_78225438@N00.jpg,993d0110b5_199_78225438@N00,9.976965,-84.842176,Puntarenas,Costa Rica
Croatia_00021_473963193_d9ce489f23_222_18744817@N00.jpg,d9ce489f23_222_18744817@N00,44.881174,15.616722,Plitvicka Jezera,Croatia
Croatia_00029_965780821_723a75feee_1096_78247883@N00.jpg,723a75feee_1096_78247883@N00,42.640107,18.110811,Dubrovnik,Croatia
Cuba_00025_699768122_15733c7a1a_1425_8078991@N04.jpg,15733c7a1a_1425_8078991@N04,23.121653,-81.347064,Boca de Camarioca,Cuba
Cyprus_00009_504391595_088287d4f6_189_8255645@N03.jpg,088287d4f6_189_8255645@N03,34.937874,32.86663,Platres,Cyprus
Denmark_00009_258337247_96db5706ff_95_70402049@N00.jpg,96db5706ff_95_70402049@N00,55.684655,12.589323,Copenhagen,Denmark
Dominica_00002_479941913_0bf2cf5743_169_7687052@N07.jpg,0bf2cf5743_169_7687052@N07,15.574013,-61.455373,Portsmouth,Dominica
DominicanRepublic_00008_528391253_78e9959702_1170_37476307@N00.jpg,78e9959702_1170_37476307@N00,18.365027,-69.020611,Punta Cana,Dominican Republic
Ecuador_00016_1042198302_3e83aea565_1079_7132415@N03.jpg,3e83aea565_1079_7132415@N03,-0.967437,-77.763977,Tena,Ecuador
Egypt_00018_389284696_a6c0fa7e22_160_36948083@N00.jpg,a6c0fa7e22_160_36948083@N00,24.032668,32.825775,Aswan,Egypt
Finland_00036_636777751_bedf67eb53_1348_86122102@N00.jpg,bedf67eb53_1348_86122102@N00,60.375722,21.391754,Dalen,Finland
Florida_00015_180339543_001a933e62_70_43935788@N00.jpg,001a933e62_70_43935788@N00,24.938747,-80.650634,Islamorada,United States
France_00057_257413141_469dcde004_96_26519935@N00.jpg,469dcde004_96_26519935@N00,47.882045,7.226428,Mulhouse,France
France_00143_633617121_9d719c65ba_1223_7591003@N03.jpg,9d719c65ba_1223_7591003@N03,48.575755,7.744073,Strasbourg,France
Germany_00063_254492987_7c8d55a3b5_99_32367657@N00.jpg,7c8d55a3b5_99_32367657@N00,47.79858,13.0461,Salzburg,Austria
Ghana_00006_933699293_d03cb9ab9b_1129_72526577@N00.jpg,d03cb9ab9b_1129_72526577@N00,10.849491,-1.514739,Pudo,Ghana
Greenland_00001_384853046_34ad6e1163_159_82952591@N00.jpg,34ad6e1163_159_82952591@N00,60.185232,-44.217224,Aappilattoq,Denmark
Guangzhou_00003_986276060_2769109737_1375_70618949@N00.jpg,2769109737_1375_70618949@N00,23.117311,113.353328,Guangzhou,China
Hawaii_00072_532408762_9c4ecc305a_1200_79756109@N00.jpg,9c4ecc305a_1200_79756109@N00,20.881077,-156.545133,Wailuku,United States
HongKong_00022_295401126_95d3f505b4_116_30554981@N00.jpg,95d3f505b4_116_30554981@N00,31.23893,121.485099,Hong Kong,China
HongKong_00034_393185078_8a349f2072_169_56776080@N00.jpg,8a349f2072_169_56776080@N00,22.286713,114.152584,Hong Kong,China
HongKong_00041_504492617_7af38e0004_208_7224156@N03.jpg,7af38e0004_208_7224156@N03,22.282425,114.146447,Hong Kong,China
Hyderabad_00003_359871435_f5abb5524b_155_36887937@N00.jpg,f5abb5524b_155_36887937@N00,17.361741,78.474558,Hyderabad,India
Iceland_00003_108349138_41786e87da_40_56945335@N00.jpg,41786e87da_40_56945335@N00,63.794617,-17.720947,Kirkjubaejarklaustur,Iceland
Illinois_00010_372417850_1818b0405b_166_41315423@N00.jpg,1818b0405b_166_41315423@N00,41.215716,-88.501578,Verona,United States
India_00024_229287479_474ac2fb6f_79_48637819@N00.jpg,474ac2fb6f_79_48637819@N00,34.147612,77.571716,Leh,India
India_00032_291479604_013cb872ba_122_59555137@N00.jpg,013cb872ba_122_59555137@N00,27.179676,78.044042,Agra,India
Ireland_00007_91942412_95795b8eb9_41_11398209@N00.jpg,95795b8eb9_41_11398209@N00,53.360182,-6.188049,Dublin,Ireland
Ireland_00028_249916505_59bfd4d0d3_81_92123108@N00.jpg,59bfd4d0d3_81_92123108@N00,52.141284,-10.279426,Dingle,Ireland
Israel_00028_511241861_3efa314a4b_219_62126383@N00.jpg,3efa314a4b_219_62126383@N00,31.776938,35.23545,Jerusalem,Israel
Istanbul_00021_475022521_99f3da9240_170_69445076@N00.jpg,99f3da9240_170_69445076@N00,41.071069,28.948974,Istanbul,Turkey
Italy_00021_160108325_a88a1ef93b_53_80333007@N00.jpg,a88a1ef93b_53_80333007@N00,42.001664,12.62947,Rome,Italy
Italy_00100_453717251_4f9e5ec1b7_186_79039156@N00.jpg,4f9e5ec1b7_186_79039156@N00,44.30226,9.212894,Portofino,Italy
Italy_00134_844603727_96b5c1d9bc_1229_76306992@N00.jpg,96b5c1d9bc_1229_76306992@N00,43.348151,11.510925,Castelnuovo Berardenga,Italy
Japan_00056_261461022_a16eeca101_114_60558526@N00.jpg,a16eeca101_114_60558526@N00,34.967491,137.168941,Okazaki,Japan
Japan_00108_482880218_7f3a0383bc_175_8047699@N05.jpg,7f3a0383bc_175_8047699@N05,35.339774,139.526367,Kamakura,Japan
Kenya_00017_1061753413_0861543f7e_1267_17351226@N00.jpg,0861543f7e_1267_17351226@N00,-1.293015,36.815357,Nairobi,Kenya
Lahore_00001_321085080_28863df64f_130_82503882@N00.jpg,28863df64f_130_82503882@N00,31.58895,74.311378,Lahore,Pakistan
Libya_00002_579471142_2e1919f8df_1017_9076790@N05.jpg,2e1919f8df_1017_9076790@N05,29.536424,21.033325,Awjilah,Libya
London_00020_82418356_e130a8793a_42_69567805@N00.jpg,e130a8793a_42_69567805@N00,51.522629,-0.099563,London,United Kingdom
London_00044_152057337_45584126c5_48_90672364@N00.jpg,45584126c5_48_90672364@N00,51.47879,-0.291255,London,United Kingdom
London_00124_307812265_70c28bf023_112_30571787@N00.jpg,70c28bf023_112_30571787@N00,51.51604,-0.129046,London,United Kingdom
London_00163_383132699_73d5a3db68_139_96387799@N00.jpg,73d5a3db68_139_96387799@N00,51.508648,-0.094285,London,United Kingdom
London_00173_399097890_cca3d6eb5c_47_89904893@N00.jpg,cca3d6eb5c_47_89904893@N00,51.510204,-0.085991,London,United Kingdom
LosAngeles_00017_271405228_1258990cf2_100_27274415@N00.jpg,1258990cf2_100_27274415@N00,34.101575,-118.340043,Los Angeles,United States
LosAngeles_00023_349121428_aaa440bcc6_132_97332629@N00.jpg,aaa440bcc6_132_97332629@N00,33.988206,-118.47536,Los Angeles,United States
Mali_00003_389132534_c1f2631a86_186_59398218@N00.jpg,c1f2631a86_186_59398218@N00,12.653068,-7.987232,Bamako,Mali
Maryland_00035_1409295892_d1f7b16b3f_1421_88483799@N00.jpg,d1f7b16b3f_1421_88483799@N00,39.397543,-76.601765,Towson,United States
Massachusetts_00011_379112224_fbcf942ebd_169_57253263@N00.jpg,fbcf942ebd_169_57253263@N00,42.633738,-70.780902,Essex,United States
Melbourne_00004_129975593_87d37e1218_53_28026984@N00.jpg,87d37e1218_53_28026984@N00,-37.829175,144.971466,Melbourne,Australia
Mexico2_00027_373475154_2cddb4fa40_137_23812473@N00.jpg,2cddb4fa40_137_23812473@N00,20.749853,-99.94606,Bernal,Mexico
Mississippi_00011_537212117_97f048d808_1357_22941966@N00.jpg,97f048d808_1357_22941966@N00,44.923333,-93.117333,St Paul,United States
Mongolia_00002_207032483_20095af4a6_60_14542551@N00.jpg,20095af4a6_60_14542551@N00,48.973343,89.959659,Olgii,Mongolia
Montana_00013_452159720_caae190cec_196_93487964@N00.jpg,caae190cec_196_93487964@N00,42.907186,-5.561764,Leon,Spain
Montenegro_00002_279525048_069d71861c_85_36093984@N00.jpg,069d71861c_85_36093984@N00,42.453987,18.536338,Herceg Novi,Montenegro
Morocco2_00003_369458188_1dcee11573_178_13527886@N00.jpg,1dcee11573_178_13527886@N00,31.39819,-7.635498,Marrakesh,Morocco
Morocco2_00016_872564984_73ef641d65_1104_83039477@N00.jpg,73ef641d65_1104_83039477@N00,34.059485,-5.005645,Fes,Morocco
Moscow_00007_275816584_98e230bb1e_88_87484925@N00.jpg,98e230bb1e_88_87484925@N00,46.734397,-117.005081,Moscow,Russia
Nepal_00013_543874653_f64e9976da_1104_7729101@N03.jpg,f64e9976da_1104_7729101@N03,27.712102,85.280685,Kathmandu,Nepal
Netherlands_00069_1354802467_1e48ea9c4c_1252_44067110@N00.jpg,1e48ea9c4c_1252_44067110@N00,52.34158,4.792327,Amsterdam,Netherlands
NorthCarolina_00008_253749264_f0a5e6ab18_88_23601949@N00.jpg,f0a5e6ab18_88_23601949@N00,35.962376,-75.635547,Nags Head,United States
Norway_00012_216550665_58216eae8f_76_90833046@N00.jpg,58216eae8f_76_90833046@N00,60.377302,6.720371,Kinsarvik,Norway
Norway_00029_447570830_5d155dd0b1_209_74196805@N00.jpg,5d155dd0b1_209_74196805@N00,69.635592,18.998966,Tromso,Norway
Norway_00040_990922720_327b7613ae_1157_96928198@N00.jpg,327b7613ae_1157_96928198@N00,62.147918,6.059207,Volda,Norway
Norway_00048_1457219700_4744851a83_1196_99437479@N00.jpg,4744851a83_1196_99437479@N00,78.052895,14.238967,Barentsburg,Norway
Oklahoma_00005_262685303_e360a17203_90_96332550@N00.jpg,e360a17203_90_96332550@N00,35.611045,-95.987763,Okmulgee,United States
Oman_00001_159023565_dc1b205e99_70_67879480@N00.jpg,dc1b205e99_70_67879480@N00,23.606306,58.537731,Muscat,Oman
Pakistan_00003_408755072_963acdb313_132_14262239@N00.jpg,963acdb313_132_14262239@N00,36.300531,74.649868,Sumayar,Pakistan
Paris_00005_44406254_0054d193dc_27_98908999@N00.jpg,0054d193dc_27_98908999@N00,48.853717,2.347738,Paris,France
Paris_00011_71800567_f579201d15_35_18684820@N00.jpg,f579201d15_35_18684820@N00,48.866521,2.329101,Paris,France
Paris_00025_129504349_cdd20e3144_1_42485416@N00.jpg,cdd20e3144_1_42485416@N00,48.861326,2.346954,Paris,France
Paris_00127_433927029_bb089eecff_188_7218593@N05.jpg,bb089eecff_188_7218593@N05,48.859364,2.291142,Paris,France
Paris_00131_445353063_8c58bd82b1_179_88895879@N00.jpg,8c58bd82b1_179_88895879@N00,48.863133,2.336654,Paris,France
Paris_00159_523650404_92319fd22a_254_51035632501@N01.jpg,92319fd22a_254_51035632501@N01,48.855298,2.312461,Paris,France
Paris_00160_524943416_6cc4913ba0_249_80246871@N00.jpg,6cc4913ba0_249_80246871@N00,48.805012,2.121015,Paris,France
Paris_00213_1392923096_21dcd946e9_1007_13640599@N07.jpg,21dcd946e9_1007_13640599@N07,48.886899,2.343177,Paris,France
Peru_00016_325016580_4febe27d8f_143_32649801@N00.jpg,4febe27d8f_143_32649801@N00,-13.53653,-71.998901,Cusco,Peru
Philippines_00021_1354823159_b54e258230_1056_83794921@N00.jpg,b54e258230_1056_83794921@N00,13.521759,120.9696,Puerto Galera,Philippines
Poland_00024_419395727_db46f2f484_183_93455345@N00.jpg,db46f2f484_183_93455345@N00,50.067717,19.923706,Krakow,Poland
Poland_00039_939060542_595e7aa0f0_1297_15632944@N00.jpg,595e7aa0f0_1297_15632944@N00,49.597095,19.93467,Chabowka,Poland
Portugal_00001_37087644_e25c1c4be1_31_41894197861@N01.jpg,e25c1c4be1_31_41894197861@N01,38.709039,-9.136247,Lisbon,Portugal
Portugal_00028_288609860_5f01b18ba2_108_82981539@N00.jpg,5f01b18ba2_108_82981539@N00,38.693519,-9.205673,Lisbon,Portugal
Portugal_00031_315254130_e99b1f16b2_116_49777280@N00.jpg,e99b1f16b2_116_49777280@N00,41.149383,-8.610105,Porto,Portugal
PuertoRico_00013_1356370638_0426ac7dcb_1264_23437487@N00.jpg,0426ac7dcb_1264_23437487@N00,18.469468,-66.119842,San Juan,United States
Romania_00003_147566544_11f95abd00_45_96155869@N00.jpg,11f95abd00_45_96155869@N00,45.793262,24.150695,Sibiu,Romania
Romania_00010_407620380_c9862a7d9a_181_48313794@N00.jpg,c9862a7d9a_181_48313794@N00,47.550579,25.843963,Gura Humorului,Romania
Rome_00002_43887898_6646f63596_30_42126397@N00.jpg,6646f63596_30_42126397@N00,41.929357,12.472229,Rome,Italy
Rome_00021_217560377_c0097f0084_83_84498284@N00.jpg,c0097f0084_83_84498284@N00,41.901765,12.481584,Rome,Italy
Rome_00024_231521295_1a0e1b7fb5_91_55085284@N00.jpg,1a0e1b7fb5_91_55085284@N00,41.890393,12.49197,Rome,Italy
Russia_00019_985802242_5ad0b7dbeb_1190_23707253@N00.jpg,5ad0b7dbeb_1190_23707253@N00,59.94046,30.312223,St Petersburg,Russia
SanFrancisco_00096_442372330_8e060f4138_176_7571568@N05.jpg,8e060f4138_176_7571568@N05,37.782383,-122.42031,San Francisco,United States
Seoul_00010_367998508_f0e90c701b_107_87409164@N00.jpg,f0e90c701b_107_87409164@N00,37.583085,126.992683,Seoul,South Korea
Shenzhen_00003_954656461_a90fe556dc_1111_32377115@N00.jpg,a90fe556dc_1111_32377115@N00,22.565354,114.073448,Shenzhen,China
SouthDakota_00001_103581976_d9b87d0c35_36_96388182@N00.jpg,d9b87d0c35_36_96388182@N00,43.542412,-96.699922,Sioux Falls,United States
Spain_00063_379578856_a608d0b600_146_75653366@N00.jpg,a608d0b600_146_75653366@N00,43.323538,-1.98522,Donostia San Sebastian,Spain
Spain_00083_486577745_b0256c3b07_221_51162504@N00.jpg,b0256c3b07_221_51162504@N00,37.389024,-5.994071,Seville,Spain
SriLanka_00008_841500207_6eabfd01c6_1147_9900419@N06.jpg,6eabfd01c6_1147_9900419@N06,6.590774,79.979095,Kalutara,Sri Lanka
Sweden_00010_187208678_92004a5c41_72_46054052@N00.jpg,92004a5c41_72_46054052@N00,58.474311,11.311798,Bovallstrand,Sweden
Switzerland_00008_103429200_c4904154d8_38_73293249@N00.jpg,c4904154d8_38_73293249@N00,46.167286,7.099698,Fully,Switzerland
Switzerland_00014_170747608_cf4538d97b_50_97458173@N00.jpg,cf4538d97b_50_97458173@N00,46.496974,7.675924,Kandersteg,Switzerland
Switzerland_00082_1222153363_9eaceb19eb_1370_47311799@N00.jpg,9eaceb19eb_1370_47311799@N00,46.204977,6.149843,Geneva,Switzerland
Switzerland_00086_1367058455_d58f03d50f_1136_9407621@N05.jpg,d58f03d50f_1136_9407621@N05,46.604579,7.935862,Lauterbrunnen,Switzerland
Sydney_00073_1226915900_eea86783cd_1128_65768710@N00.jpg,eea86783cd_1128_65768710@N00,-33.870344,151.225433,Sydney,Australia
Syria_00001_91276050_f4598af84a_27_80528961@N00.jpg,f4598af84a_27_80528961@N00,33.522792,36.309814,Damascus,Syria
Taiwan_00044_406785882_413e3bba60_158_81421684@N00.jpg,413e3bba60_158_81421684@N00,24.514718,121.60818,Jinyang,Taiwan
Tanzania_00019_1292210091_693ea74b7a_1088_15274769@N00.jpg,693ea74b7a_1088_15274769@N00,-3.169805,35.528561,Mti Mmoja,Tanzania
Thailand_00034_327008969_eda8c71554_140_17362713@N00.jpg,eda8c71554_140_17362713@N00,12.925599,100.891571,Pattaya City,Thailand
Tokyo_00070_439717934_3d0fd200f1_180_97324495@N00.jpg,3d0fd200f1_180_97324495@N00,35.690428,139.704803,Tokyo,Japan
Tonga_00002_479647466_2e7ea24455_169_36709487@N00.jpg,2e7ea24455_169_36709487@N00,-40.884642,173.048229,Tonga,New Zealand
Tunisia_00008_903924177_8eeea96057_1429_9416923@N08.jpg,8eeea96057_1429_9416923@N08,33.553412,9.966487,Matmatat Al Qadimal,Tunisia
Turkey_00007_199529249_b54fd55a6e_70_85971448@N00.jpg,b54fd55a6e_70_85971448@N00,38.671304,34.839363,Cavusin,Turkey
Turkey_00037_1105905643_007e7c4da0_1384_82622473@N00.jpg,007e7c4da0_1384_82622473@N00,41.100957,28.999614,Istanbul,Turkey
Ukraine_00015_1337848415_599183dcd9_1178_28325468@N00.jpg,599183dcd9_1178_28325468@N00,46.475736,30.765677,Odesa,Ukraine
UnitedKingdom_00019_964966881_426cf82f57_1071_98545448@N00.jpg,426cf82f57_1071_98545448@N00,51.682337,-1.78659,Kempsford,United Kingdom
Utah_00013_273721069_5a2ffa6fe3_94_79954435@N00.jpg,5a2ffa6fe3_94_79954435@N00,38.689278,-109.576805,Moab,United States
Utah_00017_311640007_f48e92f2d4_116_19269532@N00.jpg,f48e92f2d4_116_19269532@N00,37.218846,-112.920913,Springdale,United States
Utah_00026_474986001_181d71a40d_218_53364390@N00.jpg,181d71a40d_218_53364390@N00,38.773023,-109.324779,Dewey,United States
Uzbekistan_00001_280399379_3193cf1f0d_94_40084555@N00.jpg,3193cf1f0d_94_40084555@N00,39.667027,66.942787,Samarkand,Uzbekistan
Vermont_00002_113886360_6cb9ab47bd_41_87434398@N00.jpg,6cb9ab47bd_41_87434398@N00,43.043237,-72.909822,Stratton,United States
Vermont_00016_746636213_f837f3bf39_1209_19212858@N00.jpg,f837f3bf39_1209_19212858@N00,44.385208,-73.24356,Shelburne,United States
Vietnam_00013_309555658_1206a876e1_109_40279823@N00.jpg,1206a876e1_109_40279823@N00,15.878047,108.337898,Hoi An,Vietnam
Virginia_00012_710310620_0900169ce4_1266_94125865@N00.jpg,0900169ce4_1266_94125865@N00,36.746982,-81.537995,Stony Battery,United States
Virginia_00055_1440634934_ac4db3526d_1135_91062007@N00.jpg,ac4db3526d_1135_91062007@N00,36.859948,-75.978484,Virginia Beach,United States
Washington_00077_933052351_c52eb39df8_1294_54699140@N00.jpg,c52eb39df8_1294_54699140@N00,38.8985,-77.0275,Washington DC,United States
Washington_00092_1444342752_743c6981e6_1161_39405636@N00.jpg,743c6981e6_1161_39405636@N00,46.783282,-121.763534,Longmire,United States
Wisconsin_00036_1174326080_46cb7b0c2b_1168_10976003@N07.jpg,46cb7b0c2b_1168_10976003@N07,43.654692,-89.821643,Wisconsin Dells,United States
Wyoming_00005_264085120_70bc6791b2_97_48947971@N00.jpg,70bc6791b2_97_48947971@N00,43.838489,-110.725708,Alta,United States
america_00003_225732316_f761e65a4e_70_70484005@N00.jpg,f761e65a4e_70_70484005@N00,41.746157,-73.932248,Fairview,United States
capri_00004_483725210_cb68b00ed5_174_40425693@N00.jpg,cb68b00ed5_174_40425693@N00,40.557373,14.266262,Naples,Italy
england_00041_251424233_428738c274_111_11114422@N00.jpg,428738c274_111_11114422@N00,51.243139,-0.359823,Dorking,United Kingdom
england_00047_273334374_b9447e5806_94_57749403@N00.jpg,b9447e5806_94_57749403@N00,53.229056,-0.547943,Lincoln,United Kingdom
england_00090_496632589_c83b7bb9e9_226_91548597@N00.jpg,c83b7bb9e9_226_91548597@N00,53.190613,-2.894822,Chester,United Kingdom
florence_00012_313147389_c46824aa79_106_90168643@N00.jpg,c46824aa79_106_90168643@N00,43.76725,11.272659,Florence,Italy
florence_00014_353015358_1e186608c3_153_37507546@N00.jpg,1e186608c3_153_37507546@N00,43.765639,11.270256,Florence,Italy
galapagos_00007_1030772840_1430e92543_1026_7132415@N03.jpg,1430e92543_1026_7132415@N03,-0.393444,-90.281352,Seymour,Ecuador
nikko_00002_313984117_ffde0f168d_117_25159586@N00.jpg,ffde0f168d_117_25159586@N00,36.753576,139.604473,Nikko,Japan
nyc_00037_195999660_2dba8fdba9_60_40829484@N00.jpg,2dba8fdba9_60_40829484@N00,40.455307,-75.300292,New York City,United States
nyc_00042_220554146_bf077ea42f_66_20871343@N00.jpg,bf077ea42f_66_20871343@N00,40.763874,-73.973243,New York City,United States
nyc_00138_1022905709_ffa667da68_1040_70323761@N00.jpg,ffa667da68_1040_70323761@N00,40.807304,-73.961393,New York City,United States
orlando_00010_295896083_bb881f9d62_110_29251780@N00.jpg,bb881f9d62_110_29251780@N00,29.188135,-81.226387,Orlando,United States
pompei_00003_876663807_361e72721c_1145_78841376@N00.jpg,361e72721c_1145_78841376@N00,40.747586,14.484207,Pompei,Italy
scotland_00043_270016034_22faac0537_95_50994135@N00.jpg,22faac0537_95_50994135@N00,56.034122,-4.983844,Dunoon,United Kingdom
scotland_00053_331995269_96230f644d_165_77235581@N00.jpg,96230f644d_165_77235581@N00,58.202872,-6.379451,Stornoway,United Kingdom
seattle_00064_443151803_90c945e87c_191_74223826@N00.jpg,90c945e87c_191_74223826@N00,47.645127,-122.336257,Seattle,United States
venice_00002_69431815_c01190b915_35_39303693@N00.jpg,c01190b915_35_39303693@N00,45.433515,12.346229,Venice,Italy
venice_00016_265350847_0252df858c_118_44972214@N00.jpg,0252df858c_118_44972214@N00,32.845269,-117.273988,Venice,Italy
venice_00026_383980273_f31c681f5d_165_35271748@N00.jpg,f31c681f5d_165_35271748@N00,45.433703,12.339298,Venice,Italy
wales_00004_130253713_3ded2d4456_56_66516604@N00.jpg,3ded2d4456_56_66516604@N00,53.121229,-3.999366,Bangor,United Kingdom
wales_00019_442821205_59d2f2ee89_168_96019796@N00.jpg,59d2f2ee89_168_96019796@N00,51.644335,-2.677059,Chepstow,United Kingdom
